City,Country,Temperature,Humidity %,Cloudiness %,Wind Speed (mph),Latitude,Longitude,Date
rikitea,PF,73.56,80,0,11.77,-23.12,-134.97,1600107963
donskoye,RU,71.6,35,0,4.47,45.46,41.97,1600108107
newport,GB,75.99,71,0,4.14,51.59,-3.0,1600107944
melipilla,CL,78.8,54,0,6.93,-33.7,-71.22,1600108127
abu samrah,SY,77.36,41,0,8.1,35.3,37.18,1600108132
maputo,MZ,75.0,83,0,13.87,-25.97,32.59,1600107903
veere,NL,78.8,47,0,6.93,51.55,3.67,1600108154
sartana,UA,73.0,100,0,7.0,47.17,37.7,1600108157
port keats,AU,75.38,85,0,8.41,-14.25,129.55,1600108157
